[
  {
    "name": "MGR Statue",
    "lat": 12.8416604,
    "lon": 80.1541645
  },
  {
    "name": "Keezhakottaiyur",
    "lat": 12.8424787,
    "lon": 80.150937
  },
  {
    "name": "Melakottaiyur",
    "lat": 12.8464091,
    "lon": 80.1481237
  },
  {
    "name": "Jebin",
    "lat": 12.8404678,
    "lon": 80.1602714
  },
  {
    "name": "Faculty Parking lot",
    "lat": 12.8404063,
    "lon": 80.1552384
  },
  {
    "name": "Main gate 1",
    "lat": 12.8405315,
    "lon": 80.1530341
  },
  {
    "name": "Vandalur - Mambakkam - Kelambakkam Road",
    "lat": 12.8387452,
    "lon": 80.1401292
  },
  {
    "name": "Military Camp",
    "lat": 12.8398502,
    "lon": 80.1487786
  },
  {
    "name": "Mambakkam Lake",
    "lat": 12.8498722,
    "lon": 80.1597378
  },
  {
    "name": "Maambakkam Lake",
    "lat": 12.8362945,
    "lon": 80.1638115
  },
  {
    "name": "Vandalur - Mambakkam - Kelambakkam Road",
    "lat": 12.8624726,
    "lon": 80.1145041
  },
  {
    "name": "VIT Academic Block 1",
    "lat": 12.8436765,
    "lon": 80.1535132
  },
  {
    "name": "Men's Hostel Block A",
    "lat": 12.8444877,
    "lon": 80.1526674
  },
  {
    "name": "VIT Chennai library Block",
    "lat": 12.8410226,
    "lon": 80.1540287
  },
  {
    "name": "Vellore Institute of Technology - Chennai",
    "lat": 12.8430337,
    "lon": 80.1564295
  },
  {
    "name": "VMART (supermarket)",
    "lat": 12.8445816,
    "lon": 80.1538802
  },
  {
    "name": "Basketball court",
    "lat": 12.8424537,
    "lon": 80.1533305
  },
  {
    "name": "VIT Chennai Library",
    "lat": 12.840864,
    "lon": 80.1538974
  },
  {
    "name": "VIT pond",
    "lat": 12.8400956,
    "lon": 80.153932
  },
  {
    "name": "boys hostel block D1",
    "lat": 12.8437418,
    "lon": 80.152136
  },
  {
    "name": "VIT Chennai Hostel Block D2",
    "lat": 12.8438935,
    "lon": 80.151663
  },
  {
    "name": "Men's Hostel Block C",
    "lat": 12.8428647,
    "lon": 80.1576606
  },
  {
    "name": "MG Auditorium",
    "lat": 12.8395834,
    "lon": 80.15519
  },
  {
    "name": "Gazebo",
    "lat": 12.8415758,
    "lon": 80.1548365
  },
  {
    "name": "VIT Running Ground",
    "lat": 12.8424518,
    "lon": 80.1538739
  },
  {
    "name": "Transport Office",
    "lat": 12.8392962,
    "lon": 80.1543157
  },
  {
    "name": "VIT Academic Block 3",
    "lat": 12.8438127,
    "lon": 80.1548179
  },
  {
    "name": "North Square",
    "lat": 12.8441667,
    "lon": 80.1540848
  },
  {
    "name": "Domino's",
    "lat": 12.8437948,
    "lon": 80.1526207
  },
  {
    "name": "Salon",
    "lat": 12.8445863,
    "lon": 80.1537412
  },
  {
    "name": "Indian Bank",
    "lat": 12.8445927,
    "lon": 80.1537983
  },
  {
    "name": "Handball Court",
    "lat": 12.8424912,
    "lon": 80.1530405
  },
  {
    "name": "volleyball court",
    "lat": 12.8421276,
    "lon": 80.1534834
  },
  {
    "name": "Tennis Court",
    "lat": 12.8429343,
    "lon": 80.1531067
  },
  {
    "name": "VIT cricket Ground",
    "lat": 12.8421349,
    "lon": 80.1550015
  },
  {
    "name": "VIT Chennai Administrative Block",
    "lat": 12.8406104,
    "lon": 80.1539712
  },
  {
    "name": "health center",
    "lat": 12.8414126,
    "lon": 80.1566387
  },
  {
    "name": "Delta block",
    "lat": 12.8411191,
    "lon": 80.1560807
  },
  {
    "name": "STP plants",
    "lat": 12.8441567,
    "lon": 80.1559161
  },
  {
    "name": "STP plants",
    "lat": 12.8442261,
    "lon": 80.1561296
  },
  {
    "name": "Guest house",
    "lat": 12.8424043,
    "lon": 80.1525247
  },
  {
    "name": "smart farming",
    "lat": 12.8447226,
    "lon": 80.1518858
  },
  {
    "name": "Student Parking lot",
    "lat": 12.8418532,
    "lon": 80.1532055
  },
  {
    "name": "VIT Academic Block 2",
    "lat": 12.8427736,
    "lon": 80.156555
  },
  {
    "name": "Girl's Hostel Block B",
    "lat": 12.8419736,
    "lon": 80.1572402
  },
  {
    "name": "VIT Academic Block 4",
    "lat": 12.8429841,
    "lon": 80.1556488
  },
  {
    "name": "VIT Swimming Pool",
    "lat": 12.8408837,
    "lon": 80.1565054
  },
  {
    "name": "Clock Court",
    "lat": 12.8411055,
    "lon": 80.1546962
  },
  {
    "name": "Sigma Block",
    "lat": 12.8445934,
    "lon": 80.1535622
  },
  {
    "name": "Volleyball Court",
    "lat": 12.8417054,
    "lon": 80.1547918
  },
  {
    "name": "FootBall Court",
    "lat": 12.8424615,
    "lon": 80.153887
  },
  {
    "name": "Jarvinia Tea Kadai",
    "lat": 12.8411283,
    "lon": 80.1552198
  },
  {
    "name": "Vandalur - Mambakkam - Kelambakkam Road",
    "lat": 12.8366298,
    "lon": 80.1570694
  },
  {
    "name": "Bajanai Kovil Street",
    "lat": 12.8459813,
    "lon": 80.149188
  },
  {
    "name": "Bajanai Kovil Street",
    "lat": 12.8475282,
    "lon": 80.1496685
  },
  {
    "name": "Vibrance Arena",
    "lat": 12.8462332,
    "lon": 80.1589257
  },
  {
    "name": "E Block Men's Hostel",
    "lat": 12.8447258,
    "lon": 80.1610805
  },
  {
    "name": "E block Path",
    "lat": 12.8448769,
    "lon": 80.1594759
  },
  {
    "name": "State Highway 121",
    "lat": 12.8344277,
    "lon": 80.1508457
  }
]